{
  "type": "FeatureCollection",
  "features": [
    {
      "type": "Feature",
      "properties": {
        "name": "東照寺",
        "description": "布袋尊",
        "_markerType": "Icon",
        "_iconUrl": "https://maps.gsi.go.jp/portal/sys/v4/symbols/080.png",
        "_iconSize": [
          20,
          20
        ],
        "_iconAnchor": [
          10,
          10
        ]
      },
      "geometry": {
        "type": "Point",
        "coordinates": [
          139.633026,
          35.538245
        ]
      }
    },
    {
      "type": "Feature",
      "properties": {
        "name": "金蔵寺",
        "description": "寿老神",
        "_markerType": "Icon",
        "_iconUrl": "https://maps.gsi.go.jp/portal/sys/v4/symbols/080.png",
        "_iconSize": [
          20,
          20
        ],
        "_iconAnchor": [
          10,
          10
        ]
      },
      "geometry": {
        "type": "Point",
        "coordinates": [
          139.637697,
          35.551263
        ]
      }
    },
    {
      "type": "Feature",
      "properties": {
        "name": "西方寺",
        "description": "恵比寿大神",
        "_markerType": "Icon",
        "_iconUrl": "https://maps.gsi.go.jp/portal/sys/v4/symbols/080.png",
        "_iconSize": [
          20,
          20
        ],
        "_iconAnchor": [
          10,
          10
        ]
      },
      "geometry": {
        "type": "Point",
        "coordinates": [
          139.604359,
          35.525427
        ]
      }
    },
    {
      "type": "Feature",
      "properties": {
        "name": "正覚院",
        "description": "大黒天",
        "_markerType": "Icon",
        "_iconUrl": "https://maps.gsi.go.jp/portal/sys/v4/symbols/080.png",
        "_iconSize": [
          20,
          20
        ],
        "_iconAnchor": [
          10,
          10
        ]
      },
      "geometry": {
        "type": "Point",
        "coordinates": [
          139.621725,
          35.509458
        ]
      }
    },
    {
      "type": "Feature",
      "properties": {
        "name": "蓮勝寺",
        "description": "毘沙門天",
        "_markerType": "Icon",
        "_iconUrl": "https://maps.gsi.go.jp/portal/sys/v4/symbols/080.png",
        "_iconSize": [
          20,
          20
        ],
        "_iconAnchor": [
          10,
          10
        ]
      },
      "geometry": {
        "type": "Point",
        "coordinates": [
          139.63342,
          35.510617
        ]
      }
    },
    {
      "type": "Feature",
      "properties": {
        "name": "菊名池弁財天",
        "description": "弁財天",
        "_markerType": "Icon",
        "_iconUrl": "https://maps.gsi.go.jp/portal/sys/v4/symbols/080.png",
        "_iconSize": [
          20,
          20
        ],
        "_iconAnchor": [
          10,
          10
        ]
      },
      "geometry": {
        "type": "Point",
        "coordinates": [
          139.632304,
          35.499039
        ]
      }
    },
    {
      "type": "Feature",
      "properties": {
        "name": "興善寺",
        "description": "福禄寿神",
        "_markerType": "Icon",
        "_iconUrl": "https://maps.gsi.go.jp/portal/sys/v4/symbols/080.png",
        "_iconSize": [
          20,
          20
        ],
        "_iconAnchor": [
          10,
          10
        ]
      },
      "geometry": {
        "type": "Point",
        "coordinates": [
          139.620767,
          35.556198
        ]
      }
    }
  ]
}